{"type":"FeatureCollection","features":[{"type":"Feature","properties":{"name":"Luxemburg","name_en":"Luxembourg"},"geometry":{"type":"Point","coordinates":[6.13,49.6117]}},{"type":"Feature","properties":{"name":"Ľubľana","name_en":"Ljubljana"},"geometry":{"type":"Point","coordinates":[14.515,46.0553]}},{"type":"Feature","properties":{"name":"Bratislava","name_en":"Bratislava"},"geometry":{"type":"Point","coordinates":[17.117,48.15]}},{"type":"Feature","properties":{"name":"Podgorica","name_en":"Podgorica"},"geometry":{"type":"Point","coordinates":[19.2663,42.466]}},{"type":"Feature","properties":{"name":"Bern","name_en":"Bern"},"geometry":{"type":"Point","coordinates":[7.467,46.9167]}},{"type":"Feature","properties":{"name":"Priština","name_en":"Pristina"},"geometry":{"type":"Point","coordinates":[21.166,42.6667]}},{"type":"Feature","properties":{"name":"Skopje","name_en":"Skopje"},"geometry":{"type":"Point","coordinates":[21.4335,42.0]}},{"type":"Feature","properties":{"name":"Reykjavík","name_en":"Reykjavík"},"geometry":{"type":"Point","coordinates":[-21.9365,64.1435]}},{"type":"Feature","properties":{"name":"Vilnius","name_en":"Vilnius"},"geometry":{"type":"Point","coordinates":[25.3166,54.6834]}},{"type":"Feature","properties":{"name":"Riga","name_en":"Riga"},"geometry":{"type":"Point","coordinates":[24.1,56.95]}},{"type":"Feature","properties":{"name":"Záhreb","name_en":"Zagreb"},"geometry":{"type":"Point","coordinates":[16.0,45.8]}},{"type":"Feature","properties":{"name":"Tallinn","name_en":"Tallinn"},"geometry":{"type":"Point","coordinates":[24.728,59.4339]}},{"type":"Feature","properties":{"name":"Belehrad","name_en":"Belgrade"},"geometry":{"type":"Point","coordinates":[20.466,44.8206]}},{"type":"Feature","properties":{"name":"Tirana","name_en":"Tirana"},"geometry":{"type":"Point","coordinates":[19.8189,41.3275]}},{"type":"Feature","properties":{"name":"Sofia","name_en":"Sofia"},"geometry":{"type":"Point","coordinates":[23.3147,42.6853]}},{"type":"Feature","properties":{"name":"Minsk","name_en":"Minsk"},"geometry":{"type":"Point","coordinates":[27.5647,53.9019]}},{"type":"Feature","properties":{"name":"Sarajevo","name_en":"Sarajevo"},"geometry":{"type":"Point","coordinates":[18.383,43.85]}},{"type":"Feature","properties":{"name":"Valletta","name_en":"Valletta"},"geometry":{"type":"Point","coordinates":[14.5147,35.8997]}},{"type":"Feature","properties":{"name":"Nikózia","name_en":"Nicosia"},"geometry":{"type":"Point","coordinates":[33.3666,35.1667]}},{"type":"Feature","properties":{"name":"Ankara","name_en":"Ankara"},"geometry":{"type":"Point","coordinates":[32.8624,39.9292]}},{"type":"Feature","properties":{"name":"Budapešť","name_en":"Budapest"},"geometry":{"type":"Point","coordinates":[19.0814,47.502]}},{"type":"Feature","properties":{"name":"Bukurešť","name_en":"Bucharest"},"geometry":{"type":"Point","coordinates":[26.098,44.4353]}},{"type":"Feature","properties":{"name":"Lisabon","name_en":"Lisbon"},"geometry":{"type":"Point","coordinates":[-9.1468,38.7247]}},{"type":"Feature","properties":{"name":"Oslo","name_en":"Oslo"},"geometry":{"type":"Point","coordinates":[10.748,59.9186]}},{"type":"Feature","properties":{"name":"Varšava","name_en":"Warsaw"},"geometry":{"type":"Point","coordinates":[21.0053,52.2309]}},{"type":"Feature","properties":{"name":"Dublin","name_en":"Dublin"},"geometry":{"type":"Point","coordinates":[-6.257,53.3467]}},{"type":"Feature","properties":{"name":"Praha","name_en":"Prague"},"geometry":{"type":"Point","coordinates":[14.4229,50.087]}},{"type":"Feature","properties":{"name":"Helsinki","name_en":"Helsinki"},"geometry":{"type":"Point","coordinates":[24.9325,60.1638]}},{"type":"Feature","properties":{"name":"Brusel","name_en":"Brussels"},"geometry":{"type":"Point","coordinates":[4.3314,50.8353]}},{"type":"Feature","properties":{"name":"Kyjev","name_en":"Kyiv"},"geometry":{"type":"Point","coordinates":[30.5147,50.4353]}},{"type":"Feature","properties":{"name":"Madrid","name_en":"Madrid"},"geometry":{"type":"Point","coordinates":[-3.6853,40.402]}},{"type":"Feature","properties":{"name":"Štokholm","name_en":"Stockholm"},"geometry":{"type":"Point","coordinates":[18.0663,59.3241]}},{"type":"Feature","properties":{"name":"Amsterdam","name_en":"Amsterdam"},"geometry":{"type":"Point","coordinates":[4.9147,52.3519]}},{"type":"Feature","properties":{"name":"Berlín","name_en":"Berlin"},"geometry":{"type":"Point","coordinates":[13.3996,52.5238]}},{"type":"Feature","properties":{"name":"Atény","name_en":"Athens"},"geometry":{"type":"Point","coordinates":[23.7314,37.9853]}},{"type":"Feature","properties":{"name":"Viedeň","name_en":"Vienna"},"geometry":{"type":"Point","coordinates":[16.3647,48.202]}},{"type":"Feature","properties":{"name":"Londýn","name_en":"London"},"geometry":{"type":"Point","coordinates":[-0.1187,51.5019]}},{"type":"Feature","properties":{"name":"Moskva","name_en":"Moscow"},"geometry":{"type":"Point","coordinates":[37.6136,55.7541]}},{"type":"Feature","properties":{"name":"Rím","name_en":"Rome"},"geometry":{"type":"Point","coordinates":[12.4813,41.8979]}},{"type":"Feature","properties":{"name":"Paríž","name_en":"Paris"},"geometry":{"type":"Point","coordinates":[2.353,48.8581]}}]}