{"type":"FeatureCollection","features":[{"type":"Feature","properties":{"name":"Bratislava","tier":1},"geometry":{"type":"Point","coordinates":[17.1077,48.1486]}},{"type":"Feature","properties":{"name":"Košice","tier":1},"geometry":{"type":"Point","coordinates":[21.2611,48.7164]}},{"type":"Feature","properties":{"name":"Prešov","tier":1},"geometry":{"type":"Point","coordinates":[21.2393,49.0014]}},{"type":"Feature","properties":{"name":"Žilina","tier":1},"geometry":{"type":"Point","coordinates":[18.7401,49.2238]}},{"type":"Feature","properties":{"name":"Banská Bystrica","tier":1},"geometry":{"type":"Point","coordinates":[19.1535,48.7395]}},{"type":"Feature","properties":{"name":"Nitra","tier":1},"geometry":{"type":"Point","coordinates":[18.0876,48.3082]}},{"type":"Feature","properties":{"name":"Trnava","tier":1},"geometry":{"type":"Point","coordinates":[17.5887,48.3774]}},{"type":"Feature","properties":{"name":"Trenčín","tier":1},"geometry":{"type":"Point","coordinates":[18.0431,48.8946]}},{"type":"Feature","properties":{"name":"Martin","tier":2},"geometry":{"type":"Point","coordinates":[18.9251,49.064]}},{"type":"Feature","properties":{"name":"Poprad","tier":2},"geometry":{"type":"Point","coordinates":[20.2978,49.0593]}},{"type":"Feature","properties":{"name":"Prievidza","tier":2},"geometry":{"type":"Point","coordinates":[18.6238,48.771]}},{"type":"Feature","properties":{"name":"Považská Bystrica","tier":2},"geometry":{"type":"Point","coordinates":[18.4471,49.1219]}},{"type":"Feature","properties":{"name":"Michalovce","tier":2},"geometry":{"type":"Point","coordinates":[21.9176,48.7547]}},{"type":"Feature","properties":{"name":"Humenné","tier":2},"geometry":{"type":"Point","coordinates":[21.9097,48.9396]}},{"type":"Feature","properties":{"name":"Bardejov","tier":2},"geometry":{"type":"Point","coordinates":[21.2762,49.2941]}},{"type":"Feature","properties":{"name":"Spišská Nová Ves","tier":2},"geometry":{"type":"Point","coordinates":[20.5644,48.9457]}},{"type":"Feature","properties":{"name":"Liptovský Mikuláš","tier":2},"geometry":{"type":"Point","coordinates":[19.6189,49.0814]}},{"type":"Feature","properties":{"name":"Ružomberok","tier":2},"geometry":{"type":"Point","coordinates":[19.3047,49.0768]}},{"type":"Feature","properties":{"name":"Zvolen","tier":2},"geometry":{"type":"Point","coordinates":[19.1233,48.5764]}},{"type":"Feature","properties":{"name":"Lučenec","tier":2},"geometry":{"type":"Point","coordinates":[19.665,48.3309]}},{"type":"Feature","properties":{"name":"Rimavská Sobota","tier":2},"geometry":{"type":"Point","coordinates":[20.0226,48.3829]}},{"type":"Feature","properties":{"name":"Dunajská Streda","tier":2},"geometry":{"type":"Point","coordinates":[17.6113,47.9919]}},{"type":"Feature","properties":{"name":"Komárno","tier":2},"geometry":{"type":"Point","coordinates":[18.1289,47.7613]}},{"type":"Feature","properties":{"name":"Nové Zámky","tier":2},"geometry":{"type":"Point","coordinates":[18.1593,47.9871]}},{"type":"Feature","properties":{"name":"Levice","tier":2},"geometry":{"type":"Point","coordinates":[18.6066,48.2153]}},{"type":"Feature","properties":{"name":"Topoľčany","tier":2},"geometry":{"type":"Point","coordinates":[18.1672,48.5616]}},{"type":"Feature","properties":{"name":"Piešťany","tier":2},"geometry":{"type":"Point","coordinates":[17.8268,48.5985]}},{"type":"Feature","properties":{"name":"Trebišov","tier":2},"geometry":{"type":"Point","coordinates":[21.7197,48.6276]}},{"type":"Feature","properties":{"name":"Čadca","tier":2},"geometry":{"type":"Point","coordinates":[18.7884,49.4338]}},{"type":"Feature","properties":{"name":"Dolný Kubín","tier":2},"geometry":{"type":"Point","coordinates":[19.2972,49.2096]}},{"type":"Feature","properties":{"name":"Brezno","tier":2},"geometry":{"type":"Point","coordinates":[19.6308,48.803]}},{"type":"Feature","properties":{"name":"Pezinok","tier":2},"geometry":{"type":"Point","coordinates":[17.2698,48.2895]}},{"type":"Feature","properties":{"name":"Skalica","tier":2},"geometry":{"type":"Point","coordinates":[17.2278,48.8462]}},{"type":"Feature","properties":{"name":"Senica","tier":2},"geometry":{"type":"Point","coordinates":[17.3666,48.68]}}]}